"mun_code","COMUNE","latitude","longitude","province","province_code","region","agr_reg_code"
"1018","Baldissero Torinese",45.06842334,7.81780767,"Torino","TO","PIEMONTE","12"
"1028","Borgaro Torinese",45.15198241,7.65789441,"Torino","TO","PIEMONTE","14"
"1033","Bosconero",45.26856393,7.76506984,"Torino","TO","PIEMONTE","14"
"1070","Cavour",44.78403126,7.37523198,"Torino","TO","PIEMONTE","16"
"1078","Chieri",45.01315317,7.82107157,"Torino","TO","PIEMONTE","17"
"108051","Busnago",45.617173,9.46619248,"Monza e della Brianza","MB","LOMBARDIA","4"
"1082","Chivasso",45.18855522,7.8871395,"Torino","TO","PIEMONTE","14"
"109002","Amandola",42.9804282,13.35571226,"Fermo","FM","MARCHE","2"
"109013","Montappone",43.1355101,13.46935716,"Fermo","FM","MARCHE","2"
"109014","Montefalcone Appennino",42.98770102,13.45956774,"Fermo","FM","MARCHE","2"
"109016","Monte Giberto",43.09128093,13.63086077,"Fermo","FM","MARCHE","4"
"109017","Montegiorgio",43.13003126,13.53778583,"Fermo","FM","MARCHE","2"
"109019","Monteleone di Fermo",43.04742683,13.5288119,"Fermo","FM","MARCHE","2"
"109022","Monterubbiano",43.08540863,13.71643339,"Fermo","FM","MARCHE","4"
"109036","Santa Vittoria in Matenano",43.01995193,13.49672144,"Fermo","FM","MARCHE","2"
"1109","Front",45.2795507,7.66559657,"Torino","TO","PIEMONTE","9"
"1144","Marentino",45.05800482,7.87332971,"Torino","TO","PIEMONTE","12"
"1148","Mazzè",45.29853622,7.93700162,"Torino","TO","PIEMONTE","13"
"1171","Orbassano",45.00703303,7.53695676,"Torino","TO","PIEMONTE","15"
"1173","Osasco",44.84947467,7.34316619,"Torino","TO","PIEMONTE","16"
"1189","Pianezza",45.10062332,7.54635756,"Torino","TO","PIEMONTE","15"
"1192","Pino Torinese",45.0435201,7.77216514,"Torino","TO","PIEMONTE","12"
"1196","Piverone",45.44754377,8.00710274,"Torino","TO","PIEMONTE","8"
"1197","Poirino",44.92119885,7.84361932,"Torino","TO","PIEMONTE","17"
"1203","Pralormo",44.86135787,7.90066311,"Torino","TO","PIEMONTE","17"
"12130","Uboldo",45.61071287,9.00306867,"Varese","VA","LOMBARDIA","6"
"1215","Riva presso Chieri",44.98628102,7.86919927,"Torino","TO","PIEMONTE","17"
"1217","Rivarolo Canavese",45.33279488,7.7252213,"Torino","TO","PIEMONTE","14"
"1218","Rivarossa",45.25127899,7.71719961,"Torino","TO","PIEMONTE","9"
"1219","Rivoli",45.07062854,7.53394487,"Torino","TO","PIEMONTE","10"
"1254","San Secondo di Pinerolo",44.86656606,7.29864772,"Torino","TO","PIEMONTE","11"
"1273","Torrazza Piemonte",45.21520992,7.9749012,"Torino","TO","PIEMONTE","14"
"15058","Casorezzo",45.524201,8.8990494,"Milano","MI","LOMBARDIA","5"
"15171","Peschiera Borromeo",45.43176867,9.31109409,"Milano","MI","LOMBARDIA","6"
"16013","Arzago d'Adda",45.47970041,9.56429523,"Bergamo","BG","LOMBARDIA","9"
"16020","Bariano",45.51477813,9.70701505,"Bergamo","BG","LOMBARDIA","9"
"16040","Brignano Gera d'Adda",45.5445147,9.64789634,"Bergamo","BG","LOMBARDIA","9"
"16043","Calcinate",45.61977118,9.80155201,"Bergamo","BG","LOMBARDIA","10"
"16053","Caravaggio",45.49713767,9.64310613,"Bergamo","BG","LOMBARDIA","9"
"16129","Lurano",45.5650278,9.63944209,"Bergamo","BG","LOMBARDIA","9"
"16141","Mornico al Serio",45.590549,9.80871213,"Bergamo","BG","LOMBARDIA","10"
"16206","Spirano",45.58217246,9.67098717,"Bergamo","BG","LOMBARDIA","9"
"16213","Terno d'Isola",45.6835994,9.53143321,"Bergamo","BG","LOMBARDIA","8"
"16220","Treviolo",45.67161825,9.61127104,"Bergamo","BG","LOMBARDIA","9"
"16222","Urgnano",45.59854143,9.68917779,"Bergamo","BG","LOMBARDIA","9"
"17034","Calvisano",45.34907813,10.34287551,"Brescia","BS","LOMBARDIA","14"
"17046","Cazzago San Martino",45.58101331,10.02501501,"Brescia","BS","LOMBARDIA","12"
"17080","Gottolengo",45.29173169,10.27151767,"Brescia","BS","LOMBARDIA","14"
"17088","Leno",45.36749972,10.21741867,"Brescia","BS","LOMBARDIA","14"
"17113","Montichiari",45.41224627,10.39528281,"Brescia","BS","LOMBARDIA","14"
"18020","Bosnasco",45.0639987,9.35689545,"Pavia","PV","LOMBARDIA","2"
"18024","Broni",45.06197007,9.26129813,"Pavia","PV","LOMBARDIA","10"
"18032","Casatisma",45.04568877,9.13096391,"Pavia","PV","LOMBARDIA","10"
"18033","Casei Gerola",45.0063079,8.92707305,"Pavia","PV","LOMBARDIA","10"
"18047","Cervesina",45.0611738,9.01775898,"Pavia","PV","LOMBARDIA","10"
"18054","Corana",45.06288562,8.96949055,"Pavia","PV","LOMBARDIA","10"
"18094","Montalto Pavese",44.97961147,9.20733549,"Pavia","PV","LOMBARDIA","3"
"18114","Pieve Porto Morone",45.11250986,9.43845739,"Pavia","PV","LOMBARDIA","11"
"18115","Pinarolo Po",45.06602995,9.1648143,"Pavia","PV","LOMBARDIA","10"
"18116","Pizzale",45.03431401,9.04731478,"Pavia","PV","LOMBARDIA","10"
"18120","Redavalle",45.03773197,9.20401766,"Pavia","PV","LOMBARDIA","2"
"18122","Rivanazzano Terme",44.93053102,9.01644721,"Pavia","PV","LOMBARDIA","2"
"18153","Stradella",45.07530591,9.2951673,"Pavia","PV","LOMBARDIA","2"
"18182","Voghera",44.99312509,9.00852362,"Pavia","PV","LOMBARDIA","10"
"19026","Castelverde",45.18570753,9.99696281,"Cremona","CR","LOMBARDIA","5"
"19044","Formigara",45.22306217,9.77073788,"Cremona","CR","LOMBARDIA","3"
"19059","Montodine",45.28626458,9.71079969,"Cremona","CR","LOMBARDIA","3"
"19061","Motta Baluffi",45.05446451,10.25959107,"Cremona","CR","LOMBARDIA","6"
"19069","Pescarolo ed Uniti",45.19704222,10.18509595,"Cremona","CR","LOMBARDIA","6"
"19090","San Giovanni in Croce",45.07745004,10.378411,"Cremona","CR","LOMBARDIA","7"
"19095","Sesto ed Uniti",45.17550294,9.91670824,"Cremona","CR","LOMBARDIA","5"
"19100","Spinadesco",45.14822339,9.92828507,"Cremona","CR","LOMBARDIA","5"
"19103","Stagno Lombardo",45.07323308,10.08795842,"Cremona","CR","LOMBARDIA","5"
"19108","Torricella del Pizzo",45.02004282,10.29564633,"Cremona","CR","LOMBARDIA","7"
"20001","Acquanegra sul Chiese",45.16049553,10.43338521,"Mantova","MN","LOMBARDIA","2"
"20002","Asola",45.22055281,10.41432135,"Mantova","MN","LOMBARDIA","2"
"20003","Bagnolo San Vito",45.09248928,10.88141283,"Mantova","MN","LOMBARDIA","5"
"20008","Canneto sull'Oglio",45.15029003,10.37540525,"Mantova","MN","LOMBARDIA","2"
"20009","Carbonara di Po",45.03536191,11.22920362,"Mantova","MN","LOMBARDIA","7"
"20010","Casalmoro",45.2589957,10.40798158,"Mantova","MN","LOMBARDIA","2"
"20011","Casaloldo",45.25257166,10.48213987,"Mantova","MN","LOMBARDIA","2"
"20016","Castellucchio",45.14673489,10.64451007,"Mantova","MN","LOMBARDIA","5"
"20019","Ceresara",45.26332286,10.56562252,"Mantova","MN","LOMBARDIA","2"
"20020","Commessaggio",45.03460205,10.54534234,"Mantova","MN","LOMBARDIA","4"
"20021","Curtatone",45.13376694,10.7162709,"Mantova","MN","LOMBARDIA","5"
"20022","Dosolo",44.95374837,10.64141144,"Mantova","MN","LOMBARDIA","4"
"20025","Gazzuolo",45.06885217,10.58184611,"Mantova","MN","LOMBARDIA","4"
"20026","Goito",45.25521903,10.67547029,"Mantova","MN","LOMBARDIA","2"
"20027","Gonzaga",44.95474885,10.82119368,"Mantova","MN","LOMBARDIA","6"
"20028","Guidizzolo",45.31803119,10.5835291,"Mantova","MN","LOMBARDIA","2"
"20029","Magnacavallo",45.00462322,11.1847367,"Mantova","MN","LOMBARDIA","7"
"20031","Marcaria",45.11961873,10.53358846,"Mantova","MN","LOMBARDIA","4"
"20032","Mariana Mantovana",45.19403347,10.4876164,"Mantova","MN","LOMBARDIA","2"
"20034","Medole",45.32707278,10.50745401,"Mantova","MN","LOMBARDIA","2"
"20035","Moglia",44.93033909,10.91192569,"Mantova","MN","LOMBARDIA","6"
"20036","Monzambano",45.38711484,10.69313808,"Mantova","MN","LOMBARDIA","1"
"20038","Ostiglia",45.06890884,11.13143318,"Mantova","MN","LOMBARDIA","3"
"20039","Pegognaga",44.99610137,10.85904901,"Mantova","MN","LOMBARDIA","6"
"20042","Poggio Rusco",44.97742721,11.11882241,"Mantova","MN","LOMBARDIA","7"
"20046","Quingentole",45.0398812,11.04575205,"Mantova","MN","LOMBARDIA","7"
"20047","Quistello",45.00906722,10.98043645,"Mantova","MN","LOMBARDIA","7"
"20048","Redondesco",45.16667057,10.51284971,"Mantova","MN","LOMBARDIA","2"
"20050","Rivarolo Mantovano",45.07056103,10.43101188,"Mantova","MN","LOMBARDIA","4"
"20051","Rodigo",45.19935682,10.62430268,"Mantova","MN","LOMBARDIA","5"
"20052","Roncoferraro",45.13324175,10.95100592,"Mantova","MN","LOMBARDIA","3"
"20053","Roverbella",45.26503872,10.76451212,"Mantova","MN","LOMBARDIA","3"
"20054","Sabbioneta",44.99975993,10.48991359,"Mantova","MN","LOMBARDIA","4"
"20055","San Benedetto Po",45.04107354,10.92848767,"Mantova","MN","LOMBARDIA","6"
"20057","San Giorgio di Mantova",45.16526842,10.84589851,"Mantova","MN","LOMBARDIA","3"
"20058","San Giovanni del Dosso",44.96608634,11.08112346,"Mantova","MN","LOMBARDIA","7"
"20061","Sermide",45.00602954,11.2989691,"Mantova","MN","LOMBARDIA","7"
"20062","Serravalle a Po",45.06565239,11.07981063,"Mantova","MN","LOMBARDIA","3"
"20065","Suzzara",44.99023318,10.74561894,"Mantova","MN","LOMBARDIA","6"
"20066","Viadana",44.92611892,10.52143199,"Mantova","MN","LOMBARDIA","4"
"20068","Villimpenta",45.1449413,11.0293895,"Mantova","MN","LOMBARDIA","3"
"20069","Virgilio",45.1197,10.7858,"Mantova","MN","LOMBARDIA","8"
"20069","Virgilio",45.1197,10.7858,"Mantova","MN","LOMBARDIA","5"
"20073","Borgocarbonara",45.0377,11.2265,"Mantova","MN","LOMBARDIA","7"
"2042","Cigliano",45.309557,8.021489,"Vercelli","VC","PIEMONTE","9"
"23002","Albaredo d'Adige",45.31738813,11.26758294,"Verona","VR","VENETO","7"
"23003","Angiari",45.21802033,11.28372239,"Verona","VR","VENETO","9"
"23004","Arcole",45.35768001,11.28695082,"Verona","VR","VENETO","7"
"23008","Bevilacqua",45.23344659,11.39819298,"Verona","VR","VENETO","9"
"23009","Bonavigo",45.25754447,11.27970781,"Verona","VR","VENETO","9"
"23010","Boschi Sant'Anna",45.21945717,11.35793023,"Verona","VR","VENETO","9"
"23012","Bovolone",45.25798824,11.11706145,"Verona","VR","VENETO","8"
"23019","Casaleone",45.16977267,11.20022173,"Verona","VR","VENETO","9"
"23020","Castagnaro",45.12049934,11.41083411,"Verona","VR","VENETO","9"
"23021","Castel d'Azzano",45.35358762,10.9440042,"Verona","VR","VENETO","6"
"23025","Cerea",45.19202052,11.21287303,"Verona","VR","VENETO","9"
"23027","Cologna Veneta",45.31068675,11.38439416,"Verona","VR","VENETO","7"
"23037","Gazzo Veronese",45.14249825,11.1036212,"Verona","VR","VENETO","9"
"23038","Grezzana",45.54636615,11.04763369,"Verona","VR","VENETO","4"
"23040","Isola della Scala",45.2736633,11.00753615,"Verona","VR","VENETO","8"
"23041","Isola Rizza",45.29144,11.19870989,"Verona","VR","VENETO","8"
"23044","Legnago",45.19138954,11.30751817,"Verona","VR","VENETO","9"
"23048","Minerbe",45.24175652,11.34069697,"Verona","VR","VENETO","9"
"23053","Nogara",45.1778399,11.06090553,"Verona","VR","VENETO","8"
"23055","Oppeano",45.30789824,11.1783499,"Verona","VR","VENETO","8"
"23060","Povegliano Veronese",45.347262,10.88092951,"Verona","VR","VENETO","6"
"23072","Sanguinetto",45.18274607,11.1511796,"Verona","VR","VENETO","9"
"23083","Sona",45.43402698,10.8326653,"Verona","VR","VENETO","3"
"23084","Sorgà",45.21202822,10.9805369,"Verona","VR","VENETO","8"
"23089","Valeggio sul Mincio",45.3536397,10.73444725,"Verona","VR","VENETO","6"
"23092","Veronella",45.32308406,11.32049292,"Verona","VR","VENETO","7"
"23095","Villa Bartolomea",45.1592825,11.35332886,"Verona","VR","VENETO","9"
"23096","Villafranca di Verona",45.35080445,10.8467368,"Verona","VR","VENETO","6"
"24001","Agugliaro",45.323978,11.5849044,"Vicenza","VI","VENETO","9"
"24065","Montegaldella",45.4360794,11.6740893,"Vicenza","VI","VENETO","8"
"24074","Noventa Vicentina",45.29090677,11.54046115,"Vicenza","VI","VENETO","9"
"24075","Orgiano",45.35159051,11.46648317,"Vicenza","VI","VENETO","9"
"26001","Altivole",45.7539904,11.95579071,"Treviso","TV","VENETO","4"
"26005","Breda di Piave",45.7240999,12.33099505,"Treviso","TV","VENETO","7"
"26009","Casale sul Sile",45.59747105,12.32562804,"Treviso","TV","VENETO","7"
"26010","Casier",45.63422021,12.25497457,"Treviso","TV","VENETO","7"
"26015","Cessalto",45.71275461,12.6137971,"Treviso","TV","VENETO","6"
"26043","Mogliano Veneto",45.56158644,12.23645377,"Treviso","TV","VENETO","7"
"26055","Paese",45.67164128,12.1535354,"Treviso","TV","VENETO","5"
"26069","Roncade",45.63038435,12.37395321,"Treviso","TV","VENETO","7"
"26095","Zero Branco",45.59933512,12.16410528,"Treviso","TV","VENETO","7"
"27006","Cavarzere",45.13680407,12.08371372,"Venezia","VE","VENETO","6"
"27012","Dolo",45.42595888,12.07432841,"Venezia","VE","VENETO","4"
"27013","Eraclea",45.57551562,12.67353295,"Venezia","VE","VENETO","3"
"27016","Fossalta di Portogruaro",45.79292789,12.90745002,"Venezia","VE","VENETO","1"
"27019","Iesolo",45.53350167,12.63646208,"Venezia","VE","VENETO","3"
"27025","Musile di Piave",45.62231014,12.56333817,"Venezia","VE","VENETO","2"
"27033","San Donà di Piave",45.62946343,12.56428253,"Venezia","VE","VENETO","2"
"27034","San Michele al Tagliamento",45.76387362,12.99493968,"Venezia","VE","VENETO","1"
"27042","Venezia",45.43490484,12.33845214,"Venezia","VE","VENETO","5"
"27043","Vigonovo",45.38543454,12.00774615,"Venezia","VE","VENETO","4"
"28009","Baone",45.24424772,11.68844419,"Padova","PD","VENETO","1"
"28021","Candiana",45.22040959,11.99122715,"Padova","PD","VENETO","7"
"28021","Candiana",45.22040959,11.99122715,"Padova","PD","VENETO","4"
"28027","Casale di Scodosia",45.18780161,11.46636731,"Padova","PD","VENETO","5"
"28030","Cervarese Santa Croce",45.40293414,11.69190168,"Padova","PD","VENETO","4"
"28033","Codevigo",45.26795503,12.10331958,"Padova","PD","VENETO","7"
"28043","Granze",45.15430503,11.71328468,"Padova","PD","VENETO","5"
"28047","Lozzo Atestino",45.29111089,11.63136512,"Padova","PD","VENETO","1"
"28048","Maserà di Padova",45.3201723,11.86353019,"Padova","PD","VENETO","4"
"28052","Megliadino San Vitale",45.19236677,11.52411812,"Padova","PD","VENETO","5"
"28055","Monselice",45.23946775,11.75011493,"Padova","PD","VENETO","6"
"28056","Montagnana",45.23198272,11.46714863,"Padova","PD","VENETO","5"
"28058","Noventa Padovana",45.41603363,11.95288558,"Padova","PD","VENETO","4"
"28059","Ospedaletto Euganeo",45.22252696,11.61058506,"Padova","PD","VENETO","5"
"28060","Padova",45.40692987,11.87608719,"Padova","PD","VENETO","4"
"28061","Pernumia",45.25704645,11.78693849,"Padova","PD","VENETO","6"
"28070","Pozzonovo",45.19825709,11.79014771,"Padova","PD","VENETO","6"
"28073","Saccolongo",45.40568166,11.74356216,"Padova","PD","VENETO","4"
"28079","San Pietro Viminario",45.24501944,11.81834149,"Padova","PD","VENETO","6"
"28080","Santa Giustina in Colle",45.56364159,11.90617658,"Padova","PD","VENETO","3"
"28084","Sant'Urbano",45.1133772,11.61974875,"Padova","PD","VENETO","5"
"28090","Terrassa Padovana",45.2454278,11.90358026,"Padova","PD","VENETO","6"
"28096","Veggiano",45.44789092,11.71371049,"Padova","PD","VENETO","4"
"28098","Vighizzolo d'Este",45.17632694,11.6237418,"Padova","PD","VENETO","5"
"28102","Villa Estense",45.17219801,11.66718671,"Padova","PD","VENETO","5"
"28103","Villafranca Padovana",45.49498769,11.79716302,"Padova","PD","VENETO","4"
"29001","Adria",45.05465533,12.05644639,"Rovigo","RO","VENETO","3"
"29002","Ariano nel Polesine",44.94521256,12.12108456,"Rovigo","RO","VENETO","3"
"29005","Bagnolo di Po",45.01516346,11.49996488,"Rovigo","RO","VENETO","1"
"29013","Castelnovo Bariano",45.02669385,11.28626445,"Rovigo","RO","VENETO","1"
"29018","Costa di Rovigo",45.04881045,11.69407504,"Rovigo","RO","VENETO","2"
"29019","Crespino",44.98332247,11.88644751,"Rovigo","RO","VENETO","2"
"29021","Ficarolo",44.9519754,11.43256055,"Rovigo","RO","VENETO","1"
"29022","Fiesso Umbertiano",44.9617601,11.60785403,"Rovigo","RO","VENETO","1"
"29023","Frassinelle Polesine",44.99672352,11.69769786,"Rovigo","RO","VENETO","2"
"29024","Fratta Polesine",45.03168685,11.64100037,"Rovigo","RO","VENETO","2"
"29025","Gaiba",44.9482981,11.48159726,"Rovigo","RO","VENETO","1"
"29026","Gavello",45.02151244,11.91423793,"Rovigo","RO","VENETO","2"
"29027","Giacciano con Baruchella",45.06536475,11.45064279,"Rovigo","RO","VENETO","1"
"29028","Guarda Veneta",44.97979308,11.8026365,"Rovigo","RO","VENETO","2"
"29029","Lendinara",45.08346989,11.59868789,"Rovigo","RO","VENETO","1"
"29032","Melara",45.06184838,11.19772995,"Rovigo","RO","VENETO","1"
"29033","Occhiobello",44.91937113,11.57945086,"Rovigo","RO","VENETO","1"
"29034","Papozze",44.98786848,12.03106078,"Rovigo","RO","VENETO","3"
"29037","Polesella",44.96254896,11.75509475,"Rovigo","RO","VENETO","2"
"29039","Porto Tolle",44.95253376,12.33457629,"Rovigo","RO","VENETO","3"
"29040","Rosolina",45.07588808,12.2461296,"Rovigo","RO","VENETO","3"
"29041","Rovigo",45.07107288,11.79007,"Rovigo","RO","VENETO","2"
"29045","Stienta",44.93820004,11.54403684,"Rovigo","RO","VENETO","1"
"29048","Villadose",45.07367115,11.88966857,"Rovigo","RO","VENETO","2"
"29052","Porto Viro",45.02597454,12.21811845,"Rovigo","RO","VENETO","3"
"30004","Aquileia",45.76643933,13.36493966,"Udine","UD","FRIULI","11"
"30018","Carlino",45.80227999,13.18810617,"Udine","UD","FRIULI","11"
"30026","Cividale del Friuli",46.09357444,13.43202825,"Udine","UD","FRIULI","7"
"30037","Fagagna",46.11325942,13.08393536,"Udine","UD","FRIULI","6"
"30064","Muzzana del Turgnano",45.8174304,13.127795,"Udine","UD","FRIULI","11"
"30079","Pozzuolo del Friuli",45.98408187,13.19656731,"Udine","UD","FRIULI","9"
"30090","Reana del Rojale",46.1493562,13.24368407,"Udine","UD","FRIULI","9"
"30101","San Giovanni al Natisone",45.98091614,13.40396207,"Udine","UD","FRIULI","9"
"30106","San Vito di Fagagna",46.08820128,13.05693569,"Udine","UD","FRIULI","8"
"30119","Teor",45.8752,13.0415,"Udine","UD","FRIULI","10"
"30128","Trivignano Udinese",45.94148508,13.34749236,"Udine","UD","FRIULI","9"
"3100","Momo",45.57391222,8.55537053,"Novara","NO","PIEMONTE","12"
"31008","Gradisca d'Isonzo",45.88888504,13.50376194,"Gorizia","GO","FRIULI","2"
"33004","Bettola",44.77616157,9.60537884,"Piacenza","PC","EMILIA ROMAGNA","2"
"33008","Calendasco",45.08773797,9.59382034,"Piacenza","PC","EMILIA ROMAGNA","5"
"33011","Carpaneto Piacentino",44.91504872,9.78844912,"Piacenza","PC","EMILIA ROMAGNA","4"
"33014","Castelvetro Piacentino",45.09665508,9.98802767,"Piacenza","PC","EMILIA ROMAGNA","6"
"33018","Cortemaggiore",44.99676617,9.93102887,"Piacenza","PC","EMILIA ROMAGNA","6"
"33021","Fiorenzuola d'Arda",44.92865482,9.90753067,"Piacenza","PC","EMILIA ROMAGNA","6"
"33027","Monticelli d'Ongina",45.08985171,9.93326726,"Piacenza","PC","EMILIA ROMAGNA","6"
"33032","Piacenza",45.05193461,9.6926326,"Piacenza","PC","EMILIA ROMAGNA","5"
"33034","Piozzano",44.92540331,9.49436594,"Piacenza","PC","EMILIA ROMAGNA","3"
"33035","Podenzano",44.95486441,9.68530999,"Piacenza","PC","EMILIA ROMAGNA","5"
"33038","Rivergaro",44.91070815,9.597564,"Piacenza","PC","EMILIA ROMAGNA","4"
"33040","San Giorgio Piacentino",44.95411196,9.73755104,"Piacenza","PC","EMILIA ROMAGNA","4"
"33044","Vernasca",44.79992889,9.8295902,"Piacenza","PC","EMILIA ROMAGNA","4"
"33045","Vigolzone",44.91152219,9.66979001,"Piacenza","PC","EMILIA ROMAGNA","4"
"33046","Villanova sull'Arda",45.02582296,9.99741768,"Piacenza","PC","EMILIA ROMAGNA","6"
"34007","Busseto",44.98132896,10.04132309,"Parma","PR","EMILIA ROMAGNA","5"
"34009","Collecchio",44.75280057,10.21579629,"Parma","PR","EMILIA ROMAGNA","4"
"34013","Felino",44.69552364,10.24072079,"Parma","PR","EMILIA ROMAGNA","4"
"34014","Fidenza",44.86708803,10.0614143,"Parma","PR","EMILIA ROMAGNA","3"
"34016","Fontevivo",44.85642698,10.17537802,"Parma","PR","EMILIA ROMAGNA","5"
"34021","Mezzani",44.92278554,10.43590236,"Parma","PR","EMILIA ROMAGNA","6"
"34025","Noceto",44.8102618,10.17719303,"Parma","PR","EMILIA ROMAGNA","3"
"34027","Parma",44.80107394,10.32834985,"Parma","PR","EMILIA ROMAGNA","6"
"34032","Salsomaggiore Terme",44.81568328,9.97809444,"Parma","PR","EMILIA ROMAGNA","3"
"34034","Sissa",44.9628,10.2582,"Parma","PR","EMILIA ROMAGNA","6"
"34036","Soragna",44.92689728,10.12232256,"Parma","PR","EMILIA ROMAGNA","5"
"34037","Sorbolo",44.84647613,10.4483477,"Parma","PR","EMILIA ROMAGNA","6"
"34041","Torrile",44.89060669,10.35507653,"Parma","PR","EMILIA ROMAGNA","6"
"34042","Traversetolo",44.63974916,10.38163949,"Parma","PR","EMILIA ROMAGNA","4"
"35001","Albinea",44.61962564,10.60205897,"Reggio Emilia","RE","EMILIA ROMAGNA","3"
"35002","Bagnolo in Piano",44.76142985,10.67290388,"Reggio Emilia","RE","EMILIA ROMAGNA","5"
"35004","Bibbiano",44.66326108,10.47336979,"Reggio Emilia","RE","EMILIA ROMAGNA","5"
"35006","Brescello",44.90153576,10.51601194,"Reggio Emilia","RE","EMILIA ROMAGNA","4"
"35011","Carpineti",44.45468453,10.51954928,"Reggio Emilia","RE","EMILIA ROMAGNA","1"
"35014","Castellarano",44.50955318,10.73064321,"Reggio Emilia","RE","EMILIA ROMAGNA","3"
"35015","Castelnovo di Sotto",44.81160229,10.56368003,"Reggio Emilia","RE","EMILIA ROMAGNA","4"
"35017","Cavriago",44.69485856,10.52673362,"Reggio Emilia","RE","EMILIA ROMAGNA","5"
"35020","Correggio",44.7713424,10.78121506,"Reggio Emilia","RE","EMILIA ROMAGNA","5"
"35022","Gattatico",44.80622594,10.47375082,"Reggio Emilia","RE","EMILIA ROMAGNA","4"
"35024","Guastalla",44.92239814,10.65403902,"Reggio Emilia","RE","EMILIA ROMAGNA","4"
"35026","Luzzara",44.9600928,10.68587518,"Reggio Emilia","RE","EMILIA ROMAGNA","4"
"35028","Novellara",44.84512566,10.73188909,"Reggio Emilia","RE","EMILIA ROMAGNA","4"
"35033","Reggio nell'Emilia",44.69735289,10.63007973,"Reggio Emilia","RE","EMILIA ROMAGNA","5"
"35040","Scandiano",44.59938975,10.6882162,"Reggio Emilia","RE","EMILIA ROMAGNA","3"
"36002","Bomporto",44.72737543,11.04278703,"Modena","MO","EMILIA ROMAGNA","5"
"36003","Campogalliano",44.69044118,10.84125789,"Modena","MO","EMILIA ROMAGNA","5"
"36004","Camposanto",44.78790421,11.13827895,"Modena","MO","EMILIA ROMAGNA","4"
"36005","Carpi",44.78247939,10.88526276,"Modena","MO","EMILIA ROMAGNA","5"
"36006","Castelfranco Emilia",44.59636639,11.05298979,"Modena","MO","EMILIA ROMAGNA","6"
"36007","Castelnuovo Rangone",44.54913164,10.93964894,"Modena","MO","EMILIA ROMAGNA","6"
"36008","Castelvetro di Modena",44.50346628,10.94303246,"Modena","MO","EMILIA ROMAGNA","3"
"36012","Finale Emilia",44.83221342,11.2957332,"Modena","MO","EMILIA ROMAGNA","4"
"36015","Formigine",44.57598268,10.84018896,"Modena","MO","EMILIA ROMAGNA","6"
"36022","Mirandola",44.88707754,11.06607716,"Modena","MO","EMILIA ROMAGNA","4"
"36023","Modena",44.64600008,10.92615487,"Modena","MO","EMILIA ROMAGNA","6"
"36028","Novi di Modena",44.89356712,10.90134261,"Modena","MO","EMILIA ROMAGNA","4"
"36036","San Cesario sul Panaro",44.56156734,11.03416799,"Modena","MO","EMILIA ROMAGNA","6"
"36037","San Felice sul Panaro",44.83931946,11.14140434,"Modena","MO","EMILIA ROMAGNA","4"
"36044","Soliera",44.73814012,10.92473124,"Modena","MO","EMILIA ROMAGNA","5"
"36045","Spilamberto",44.5337143,11.02374056,"Modena","MO","EMILIA ROMAGNA","6"
"37001","Anzola dell'Emilia",44.546483,11.19326943,"Bologna","BO","EMILIA ROMAGNA","6"
"37002","Argelato",44.64232695,11.34764547,"Bologna","BO","EMILIA ROMAGNA","7"
"37003","Baricella",44.64706061,11.53455005,"Bologna","BO","EMILIA ROMAGNA","7"
"37005","Bentivoglio",44.63514888,11.41786388,"Bologna","BO","EMILIA ROMAGNA","7"
"37006","Bologna",44.4943668,11.3417208,"Bologna","BO","EMILIA ROMAGNA","3"
"37009","Calderara di Reno",44.56608171,11.27202395,"Bologna","BO","EMILIA ROMAGNA","6"
"37017","Castello d'Argile",44.68123191,11.29660018,"Bologna","BO","EMILIA ROMAGNA","7"
"37019","Castel Maggiore",44.57499666,11.36489158,"Bologna","BO","EMILIA ROMAGNA","7"
"37020","Castel San Pietro Terme",44.39812256,11.58917845,"Bologna","BO","EMILIA ROMAGNA","5"
"37021","Castenaso",44.50891745,11.46878718,"Bologna","BO","EMILIA ROMAGNA","8"
"37023","Crespellano",44.5144,11.1291,"Bologna","BO","EMILIA ROMAGNA","6"
"37024","Crevalcore",44.7226444,11.14703461,"Bologna","BO","EMILIA ROMAGNA","6"
"37025","Dozza",44.3594388,11.62867786,"Bologna","BO","EMILIA ROMAGNA","5"
"37028","Galliera",44.74473998,11.43594172,"Bologna","BO","EMILIA ROMAGNA","7"
"37031","Grizzana Morandi",44.25551286,11.15075094,"Bologna","BO","EMILIA ROMAGNA","1"
"37032","Imola",44.35307392,11.71415595,"Bologna","BO","EMILIA ROMAGNA","8"
"37035","Malalbergo",44.71890504,11.53397861,"Bologna","BO","EMILIA ROMAGNA","7"
"37037","Medicina",44.47644406,11.64047564,"Bologna","BO","EMILIA ROMAGNA","8"
"37039","Molinella",44.62036923,11.67032164,"Bologna","BO","EMILIA ROMAGNA","8"
"37042","Monte San Pietro",44.45776182,11.1996852,"Bologna","BO","EMILIA ROMAGNA","4"
"37044","Monzuno",44.27680857,11.27144388,"Bologna","BO","EMILIA ROMAGNA","1"
"37047","Pianoro",44.38510945,11.34325984,"Bologna","BO","EMILIA ROMAGNA","4"
"37049","Porretta Terme",44.1553,10.9762,"Bologna","BO","EMILIA ROMAGNA","2"
"37052","San Giorgio di Piano",44.64698354,11.3751386,"Bologna","BO","EMILIA ROMAGNA","7"
"37053","San Giovanni in Persiceto",44.63877152,11.18779855,"Bologna","BO","EMILIA ROMAGNA","6"
"37054","San Lazzaro di Savena",44.47047676,11.40805744,"Bologna","BO","EMILIA ROMAGNA","3"
"37055","San Pietro in Casale",44.70262524,11.40619416,"Bologna","BO","EMILIA ROMAGNA","7"
"37056","Sant'Agata Bolognese",44.66454406,11.13381036,"Bologna","BO","EMILIA ROMAGNA","6"
"37057","Sasso Marconi",44.39437522,11.24491727,"Bologna","BO","EMILIA ROMAGNA","4"
"37060","Zola Predosa",44.49223785,11.21818344,"Bologna","BO","EMILIA ROMAGNA","3"
"37061","Valsamoggia",44.5031,11.0804,"Bologna","BO","EMILIA ROMAGNA","8"
"38001","Argenta",44.61443583,11.83704263,"Ferrara","FE","EMILIA ROMAGNA","2"
"38002","Berra",44.97935353,11.97857633,"Ferrara","FE","EMILIA ROMAGNA","2"
"38003","Bondeno",44.88521609,11.41846422,"Ferrara","FE","EMILIA ROMAGNA","4"
"38003","Bondeno",44.88521609,11.41846422,"Ferrara","FE","EMILIA ROMAGNA","1"
"38004","Cento",44.72755647,11.29060992,"Ferrara","FE","EMILIA ROMAGNA","1"
"38005","Codigoro",44.83183932,12.10501471,"Ferrara","FE","EMILIA ROMAGNA","3"
"38006","Comacchio",44.69462384,12.18387254,"Ferrara","FE","EMILIA ROMAGNA","3"
"38007","Copparo",44.89547576,11.82871999,"Ferrara","FE","EMILIA ROMAGNA","2"
"38008","Ferrara",44.83599085,11.61868934,"Ferrara","FE","EMILIA ROMAGNA","1"
"38013","Massa Fiscaglia",44.81026,12.0117,"Ferrara","FE","EMILIA ROMAGNA","3"
"38017","Ostellato",44.74541029,11.94082589,"Ferrara","FE","EMILIA ROMAGNA","3"
"38019","Portomaggiore",44.69780545,11.80577819,"Ferrara","FE","EMILIA ROMAGNA","2"
"38020","Ro",44.94537415,11.76486674,"Ferrara","FE","EMILIA ROMAGNA","2"
"38021","Sant'Agostino",44.7932,11.3892,"Ferrara","FE","EMILIA ROMAGNA","1"
"38022","Vigarano Mainarda",44.84176192,11.50031563,"Ferrara","FE","EMILIA ROMAGNA","1"
"38028","Terre del Reno",44.7932,11.3892,"Ferrara","FE","EMILIA ROMAGNA","8"
"39002","Bagnacavallo",44.41630012,11.97697277,"Ravenna","RA","EMILIA ROMAGNA","2"
"39005","Casola Valsenio",44.22351906,11.62307624,"Ravenna","RA","EMILIA ROMAGNA","1"
"39007","Cervia",44.26092823,12.3498153,"Ravenna","RA","EMILIA ROMAGNA","3"
"39008","Conselice",44.51266493,11.82906464,"Ravenna","RA","EMILIA ROMAGNA","2"
"39010","Faenza",44.28543714,11.88279721,"Ravenna","RA","EMILIA ROMAGNA","4"
"39014","Ravenna",44.41722492,12.19913937,"Ravenna","RA","EMILIA ROMAGNA","3"
"39015","Riolo Terme",44.27615818,11.72454789,"Ravenna","RA","EMILIA ROMAGNA","1"
"39016","Russi",44.37242208,12.03289251,"Ravenna","RA","EMILIA ROMAGNA","4"
"40001","Bagno di Romagna",43.8578076,11.9768623,"Forlì-Cesena","FC","EMILIA ROMAGNA","1"
"40004","Borghi",44.03146437,12.35456963,"Forlì-Cesena","FC","EMILIA ROMAGNA","3"
"40007","Cesena",44.13654899,12.24217492,"Forlì-Cesena","FC","EMILIA ROMAGNA","5"
"40008","Cesenatico",44.19953513,12.39544168,"Forlì-Cesena","FC","EMILIA ROMAGNA","6"
"40009","Civitella di Romagna",44.00686055,11.93825799,"Forlì-Cesena","FC","EMILIA ROMAGNA","2"
"40011","Dovadola",44.12161957,11.88746782,"Forlì-Cesena","FC","EMILIA ROMAGNA","2"
"40012","Forlì",44.22268559,12.04068608,"Forlì-Cesena","FC","EMILIA ROMAGNA","5"
"40013","Forlimpopoli",44.18722836,12.12663769,"Forlì-Cesena","FC","EMILIA ROMAGNA","5"
"40015","Gambettola",44.12000641,12.33907227,"Forlì-Cesena","FC","EMILIA ROMAGNA","5"
"40016","Gatteo",44.1096172,12.38611016,"Forlì-Cesena","FC","EMILIA ROMAGNA","6"
"40018","Longiano",44.07409338,12.32692236,"Forlì-Cesena","FC","EMILIA ROMAGNA","5"
"40019","Meldola",44.12697469,12.06061678,"Forlì-Cesena","FC","EMILIA ROMAGNA","2"
"40020","Mercato Saraceno",43.95701341,12.19584445,"Forlì-Cesena","FC","EMILIA ROMAGNA","3"
"40032","Predappio",44.10181434,11.98050097,"Forlì-Cesena","FC","EMILIA ROMAGNA","2"
"40036","Rocca San Casciano",44.0614546,11.84223308,"Forlì-Cesena","FC","EMILIA ROMAGNA","2"
"40044","Sarsina",43.9185833,12.14086214,"Forlì-Cesena","FC","EMILIA ROMAGNA","3"
"4019","Bene Vagienna",44.54523956,7.83282512,"Cuneo","CN","PIEMONTE","16"
"4027","Bossolasco",44.52679083,8.05750263,"Cuneo","CN","PIEMONTE","12"
"4029","Bra",44.69818228,7.85474763,"Cuneo","CN","PIEMONTE","16"
"4040","Caraglio",44.41771618,7.42762073,"Cuneo","CN","PIEMONTE","17"
"4043","Carrù",44.47859161,7.88006416,"Cuneo","CN","PIEMONTE","16"
"4062","Ceresole Alba",44.79952425,7.82056601,"Cuneo","CN","PIEMONTE","10"
"4067","Cherasco",44.65222548,7.85820345,"Cuneo","CN","PIEMONTE","16"
"4082","Dronero",44.46697823,7.36331795,"Cuneo","CN","PIEMONTE","3"
"4089","Fossano",44.549398,7.72487008,"Cuneo","CN","PIEMONTE","17"
"41001","Acqualagna",43.61673002,12.67087178,"Pesaro Urbino","PU","MARCHE","5"
"41007","Cagli",43.54638176,12.64801492,"Pesaro Urbino","PU","MARCHE","3"
"41012","Colbordolo",43.8201,12.7213,"Pesaro Urbino","PU","MARCHE","7"
"41018","Frontone",43.51462189,12.73891053,"Pesaro Urbino","PU","MARCHE","3"
"4102","Igliano",44.44353291,8.01250347,"Cuneo","CN","PIEMONTE","13"
"41025","Mercatello sul Metauro",43.64750954,12.33675362,"Pesaro Urbino","PU","MARCHE","2"
"41027","Mombaroccio",43.79683666,12.85487947,"Pesaro Urbino","PU","MARCHE","7"
"41029","Mondolfo",43.75151916,13.09546209,"Pesaro Urbino","PU","MARCHE","8"
"41034","Montefelcino",43.73506647,12.83320397,"Pesaro Urbino","PU","MARCHE","6"
"41043","Pergola",43.56288219,12.83598983,"Pesaro Urbino","PU","MARCHE","6"
"41044","Pesaro",43.91014021,12.91345991,"Pesaro Urbino","PU","MARCHE","7"
"41046","Piagge",43.7354,12.9699,"Pesaro Urbino","PU","MARCHE","8"
"41051","San Costanzo",43.76311801,13.06950997,"Pesaro Urbino","PU","MARCHE","8"
"41052","San Giorgio di Pesaro",43.7185,12.9811,"Pesaro Urbino","PU","MARCHE","8"
"41057","Sant'Angelo in Vado",43.66489783,12.41326777,"Pesaro Urbino","PU","MARCHE","2"
"41060","Sassofeltrio",43.89243764,12.50930402,"Pesaro Urbino","PU","MARCHE","4"
"41065","Tavullia",43.89794226,12.75319778,"Pesaro Urbino","PU","MARCHE","7"
"41067","Urbino",43.72512229,12.63729902,"Pesaro Urbino","PU","MARCHE","5"
"41068","Vallefoglia",43.8264,12.8013,"Pesaro Urbino","PU","MARCHE","8"
"41070","Terre Roveresche",43.6876,12.9641,"Pesaro Urbino","PU","MARCHE","8"
"4114","Magliano Alpi",44.45810047,7.79955227,"Cuneo","CN","PIEMONTE","16"
"4130","Mondovì",44.38717713,7.81980578,"Cuneo","CN","PIEMONTE","14"
"4131","Monesiglio",44.46489547,8.11637954,"Cuneo","CN","PIEMONTE","13"
"4140","Monteu Roero",44.78023621,7.93086916,"Cuneo","CN","PIEMONTE","10"
"4145","Murazzano",44.47375439,8.01884708,"Cuneo","CN","PIEMONTE","13"
"4147","Narzole",44.59415651,7.87051966,"Cuneo","CN","PIEMONTE","16"
"4170","Pocapaglia",44.71945971,7.88718583,"Cuneo","CN","PIEMONTE","10"
"42002","Ancona",43.61675973,13.51887537,"Ancona","AN","MARCHE","6"
"42004","Barbara",43.58080064,13.02473927,"Ancona","AN","MARCHE","3"
"42008","Castelbellino",43.48783546,13.14606651,"Ancona","AN","MARCHE","3"
"42017","Fabriano",43.33626864,12.90472385,"Ancona","AN","MARCHE","2"
"42019","Filottrano",43.43567741,13.35128311,"Ancona","AN","MARCHE","6"
"4202","Salmour",44.57815425,7.79212298,"Cuneo","CN","PIEMONTE","16"
"4203","Saluzzo",44.64702298,7.49084739,"Cuneo","CN","PIEMONTE","15"
"42039","Ripe",43.8166,12.75,"Ancona","AN","MARCHE","8"
"42041","San Marcello",43.57673897,13.20620835,"Ancona","AN","MARCHE","5"
"42044","Sassoferrato",43.43599892,12.85865231,"Ancona","AN","MARCHE","2"
"42045","Senigallia",43.71482786,13.21778017,"Ancona","AN","MARCHE","4"
"42047","Serra San Quirico",43.44757996,13.01483261,"Ancona","AN","MARCHE","1"
"4208","Sanfrè",44.75219136,7.80354961,"Cuneo","CN","PIEMONTE","10"
"4211","Sant'Albano Stura",44.50992775,7.7210529,"Cuneo","CN","PIEMONTE","17"
"4215","Savigliano",44.64801868,7.65747908,"Cuneo","CN","PIEMONTE","15"
"4217","Scarnafigi",44.68175572,7.56692665,"Cuneo","CN","PIEMONTE","15"
"4222","Sommariva del Bosco",44.77128582,7.7842658,"Cuneo","CN","PIEMONTE","10"
"4250","Vottignasco",44.56481499,7.57821349,"Cuneo","CN","PIEMONTE","17"
"43003","Appignano",43.36406969,13.34623812,"Macerata","MC","MARCHE","6"
"43019","Fiuminata",43.18864438,12.93168275,"Macerata","MC","MARCHE","1"
"43022","Loro Piceno",43.16610273,13.41619153,"Macerata","MC","MARCHE","5"
"43023","Macerata",43.30023926,13.45307188,"Macerata","MC","MARCHE","6"
"43024","Matelica",43.25661381,13.00951788,"Macerata","MC","MARCHE","3"
"43025","Mogliano",43.18600351,13.4808227,"Macerata","MC","MARCHE","6"
"43032","Monte San Martino",43.03117231,13.43937111,"Macerata","MC","MARCHE","5"
"43041","Pollenza",43.26782215,13.34760396,"Macerata","MC","MARCHE","5"
"43044","Recanati",43.40383437,13.54883759,"Macerata","MC","MARCHE","6"
"43046","San Ginesio",43.10801114,13.31672887,"Macerata","MC","MARCHE","5"
"43047","San Severino Marche",43.22885753,13.17711312,"Macerata","MC","MARCHE","4"
"43048","Sant'Angelo in Pontano",43.09929122,13.3954781,"Macerata","MC","MARCHE","5"
"43054","Treia",43.31128023,13.31230423,"Macerata","MC","MARCHE","5"
"44007","Ascoli Piceno",42.85322304,13.57691135,"Ascoli Piceno","AP","MARCHE","3"
"44021","Force",42.9630041,13.49104814,"Ascoli Piceno","AP","MARCHE","3"
"44063","Ripatransone",43.00016638,13.76264711,"Ascoli Piceno","AP","MARCHE","5"
"48004","Borgo San Lorenzo",43.95478735,11.3876842,"Firenze","FI","TOSCANA","4"
"48014","Empoli",43.71908066,10.94718391,"Firenze","FI","TOSCANA","10"
"48049","Vicchio",43.93378303,11.46543614,"Firenze","FI","TOSCANA","4"
"49008","Collesalvetti",43.58921788,10.47606442,"Livorno","LI","TOSCANA","1"
"50004","Calcinaia",43.68299475,10.61566661,"Pisa","PI","TOSCANA","6"
"50008","Cascina",43.67654137,10.54927706,"Pisa","PI","TOSCANA","6"
"50014","Fauglia",43.56700256,10.51604084,"Pisa","PI","TOSCANA","1"
"50015","Guardistallo",43.31332535,10.63299137,"Pisa","PI","TOSCANA","5"
"50019","Montecatini Val di Cecina",43.39200876,10.74815959,"Pisa","PI","TOSCANA","2"
"50023","Orciano Pisano",43.49126495,10.51010989,"Pisa","PI","TOSCANA","2"
"50025","Peccioli",43.54800598,10.72104789,"Pisa","PI","TOSCANA","1"
"50026","Pisa",43.71553206,10.40127259,"Pisa","PI","TOSCANA","6"
"50029","Pontedera",43.66392507,10.63600988,"Pisa","PI","TOSCANA","6"
"50032","San Miniato",43.67940707,10.85239053,"Pisa","PI","TOSCANA","1"
"50034","Santa Luce",43.47250273,10.56481909,"Pisa","PI","TOSCANA","2"
"50039","Volterra",43.40170812,10.85941327,"Pisa","PI","TOSCANA","3"
"5012","Buttigliera d'Asti",45.02254621,7.95051282,"Asti","AT","PIEMONTE","1"
"5014","Calliano",45.00626143,8.25732636,"Asti","AT","PIEMONTE","2"
"5033","Cellarengo",44.86599664,7.94500108,"Asti","AT","PIEMONTE","1"
"5058","Incisa Scapaccino",44.80839835,8.38094573,"Asti","AT","PIEMONTE","3"
"5059","Isola d'Asti",44.82947547,8.17721468,"Asti","AT","PIEMONTE","3"
"5069","Moncalvo",45.05139958,8.26346587,"Asti","AT","PIEMONTE","2"
"5075","Montechiaro d'Asti",45.00821528,8.11238215,"Asti","AT","PIEMONTE","2"
"5081","Olmo Gentile",44.58555786,8.24703487,"Asti","AT","PIEMONTE","4"
"5083","Penango",45.03325898,8.25013241,"Asti","AT","PIEMONTE","2"
"5090","Revigliasco d'Asti",44.85873263,8.1583648,"Asti","AT","PIEMONTE","2"
"5092","Robella",45.10233231,8.100056,"Asti","AT","PIEMONTE","1"
"51002","Arezzo",43.46642752,11.88228845,"Arezzo","AR","TOSCANA","6"
"51004","Bibbiena",43.69445741,11.81814145,"Arezzo","AR","TOSCANA","1"
"51012","Castiglion Fiorentino",43.3416424,11.92386582,"Arezzo","AR","TOSCANA","6"
"51017","Cortona",43.27511338,11.98505582,"Arezzo","AR","TOSCANA","6"
"51021","Lucignano",43.2754946,11.74707426,"Arezzo","AR","TOSCANA","5"
"51025","Monte San Savino",43.33138534,11.72533603,"Arezzo","AR","TOSCANA","5"
"51030","Pieve Santo Stefano",43.66849635,12.04174551,"Arezzo","AR","TOSCANA","2"
"51031","Poppi",43.72453716,11.76530501,"Arezzo","AR","TOSCANA","1"
"51034","Sansepolcro",43.57014563,12.1413222,"Arezzo","AR","TOSCANA","4"
"5108","Tigliole",44.88727476,8.07546861,"Asti","AT","PIEMONTE","2"
"5117","Villafranca d'Asti",44.91367137,8.03221225,"Asti","AT","PIEMONTE","1"
"5118","Villanova d'Asti",44.94188973,7.93722176,"Asti","AT","PIEMONTE","1"
"5119","Villa San Secondo",45.00518407,8.13525532,"Asti","AT","PIEMONTE","2"
"5121","Montiglio Monferrato",45.06741302,8.09773822,"Asti","AT","PIEMONTE","1"
"52002","Asciano",43.2349413,11.55944599,"Siena","SI","TOSCANA","5"
"52007","Castiglione d'Orcia",43.00437783,11.61639322,"Siena","SI","TOSCANA","1"
"52015","Montepulciano",43.09255459,11.78070207,"Siena","SI","TOSCANA","6"
"52017","Monteroni d'Arbia",43.23108759,11.42187191,"Siena","SI","TOSCANA","5"
"52020","Piancastagnaio",42.84943624,11.69182147,"Siena","SI","TOSCANA","1"
"52021","Pienza",43.07632711,11.67996125,"Siena","SI","TOSCANA","7"
"52030","San Quirico d'Orcia",43.06026966,11.60328179,"Siena","SI","TOSCANA","7"
"52032","Siena",43.31816374,11.33190988,"Siena","SI","TOSCANA","4"
"52033","Sinalunga",43.21239106,11.73606159,"Siena","SI","TOSCANA","6"
"52035","Torrita di Siena",43.16663712,11.77188985,"Siena","SI","TOSCANA","6"
"53002","Campagnatico",42.88278613,11.27494204,"Grosseto","GR","TOSCANA","2"
"53003","Capalbio",42.45325601,11.42201384,"Grosseto","GR","TOSCANA","5"
"53004","Castel del Piano",42.89305163,11.53774028,"Grosseto","GR","TOSCANA","1"
"53005","Castell'Azzara",42.77354029,11.69777485,"Grosseto","GR","TOSCANA","1"
"53007","Cinigiano",42.89108419,11.39417166,"Grosseto","GR","TOSCANA","2"
"53008","Civitella Paganico",42.99397382,11.28161679,"Grosseto","GR","TOSCANA","2"
"53011","Grosseto",42.76026757,11.11356398,"Grosseto","GR","TOSCANA","7"
"53013","Magliano in Toscana",42.59855637,11.29353658,"Grosseto","GR","TOSCANA","5"
"53014","Manciano",42.58733998,11.51546068,"Grosseto","GR","TOSCANA","3"
"53026","Sorano",42.68173237,11.71382965,"Grosseto","GR","TOSCANA","3"
"54001","Assisi",43.07082764,12.61540396,"Perugia","PG","UMBRIA","8"
"54002","Bastia Umbra",43.06650647,12.5492598,"Perugia","PG","UMBRIA","7"
"54003","Bettona",43.01296467,12.48493174,"Perugia","PG","UMBRIA","7"
"54004","Bevagna",42.9339354,12.60912589,"Perugia","PG","UMBRIA","11"
"54005","Campello sul Clitunno",42.82007685,12.7769285,"Perugia","PG","UMBRIA","12"
"54006","Cannara",42.99544132,12.58325585,"Perugia","PG","UMBRIA","7"
"54009","Castiglione del Lago",43.1272779,12.05357675,"Perugia","PG","UMBRIA","6"
"54010","Cerreto di Spoleto",42.81933452,12.91638888,"Perugia","PG","UMBRIA","3"
"54012","Città della Pieve",42.95281727,12.0050632,"Perugia","PG","UMBRIA","9"
"54013","Città di Castello",43.45737865,12.23814701,"Perugia","PG","UMBRIA","5"
"54014","Collazzone",42.89426307,12.43788685,"Perugia","PG","UMBRIA","10"
"54015","Corciano",43.12854903,12.28640075,"Perugia","PG","UMBRIA","7"
"54016","Costacciaro",43.35890844,12.71192029,"Perugia","PG","UMBRIA","1"
"54017","Deruta",42.98223798,12.41989716,"Perugia","PG","UMBRIA","7"
"54018","Foligno",42.95569525,12.703587,"Perugia","PG","UMBRIA","2"
"54018","Foligno",42.95569525,12.703587,"Perugia","PG","UMBRIA","8"
"54019","Fossato di Vico",43.29433869,12.76164768,"Perugia","PG","UMBRIA","2"
"54020","Fratta Todina",42.85753894,12.36643365,"Perugia","PG","UMBRIA","10"
"54021","Giano dell'Umbria",42.83371291,12.57717981,"Perugia","PG","UMBRIA","11"
"54022","Gualdo Cattaneo",42.90919383,12.55584061,"Perugia","PG","UMBRIA","11"
"54024","Gubbio",43.35352094,12.57875535,"Perugia","PG","UMBRIA","1"
"54025","Lisciano Niccone",43.246024,12.14336777,"Perugia","PG","UMBRIA","6"
"54026","Magione",43.14260687,12.20540863,"Perugia","PG","UMBRIA","6"
"54027","Marsciano",42.91019962,12.33954166,"Perugia","PG","UMBRIA","10"
"54028","Massa Martana",42.77556262,12.52301353,"Perugia","PG","UMBRIA","12"
"54029","Monte Castello di Vibio",42.84031952,12.35226566,"Perugia","PG","UMBRIA","10"
"54030","Montefalco",42.89392022,12.65251997,"Perugia","PG","UMBRIA","11"
"54032","Monte Santa Maria Tiberina",43.43681364,12.16292237,"Perugia","PG","UMBRIA","5"
"54033","Montone",43.36371769,12.3268388,"Perugia","PG","UMBRIA","5"
"54034","Nocera Umbra",43.11094788,12.79031861,"Perugia","PG","UMBRIA","2"
"54036","Paciano",43.02209431,12.07100814,"Perugia","PG","UMBRIA","6"
"54037","Panicale",43.02935621,12.10062935,"Perugia","PG","UMBRIA","6"
"54039","Perugia",43.1067584,12.38824699,"Perugia","PG","UMBRIA","7"
"54040","Piegaro",42.97051088,12.08582134,"Perugia","PG","UMBRIA","9"
"54041","Pietralunga",43.44218931,12.43684299,"Perugia","PG","UMBRIA","1"
"54046","Scheggia e Pascelupo",43.40373635,12.66800081,"Perugia","PG","UMBRIA","1"
"54050","Spello",42.99250937,12.67126173,"Perugia","PG","UMBRIA","8"
"54051","Spoleto",42.73448355,12.73830119,"Perugia","PG","UMBRIA","12"
"54052","Todi",42.7822488,12.40689673,"Perugia","PG","UMBRIA","10"
"54054","Trevi",42.87712949,12.74769941,"Perugia","PG","UMBRIA","12"
"54055","Tuoro sul Trasimeno",43.20875849,12.07173598,"Perugia","PG","UMBRIA","6"
"54056","Umbertide",43.30646239,12.32693492,"Perugia","PG","UMBRIA","5"
"54057","Valfabbrica",43.15940657,12.60129441,"Perugia","PG","UMBRIA","8"
"55001","Acquasparta",42.69062742,12.54631473,"Terni","TR","UMBRIA","5"
"55004","Amelia",42.55889701,12.41191794,"Terni","TR","UMBRIA","6"
"55009","Castel Giorgio",42.70779275,11.97960194,"Terni","TR","UMBRIA","2"
"55010","Castel Viscardo",42.7557424,12.00153506,"Terni","TR","UMBRIA","2"
"55013","Ficulle",42.83632012,12.06634307,"Terni","TR","UMBRIA","2"
"55015","Guardea",42.62353076,12.29723847,"Terni","TR","UMBRIA","4"
"55016","Lugnano in Teverina",42.57428706,12.33032186,"Terni","TR","UMBRIA","4"
"55017","Montecastrilli",42.64979219,12.4877868,"Terni","TR","UMBRIA","5"
"55020","Montegabbione",42.92123817,12.09252585,"Terni","TR","UMBRIA","3"
"55021","Monteleone d'Orvieto",42.91646062,12.05156237,"Terni","TR","UMBRIA","2"
"55022","Narni",42.5192581,12.51528967,"Terni","TR","UMBRIA","6"
"55024","Otricoli",42.4233429,12.47829719,"Terni","TR","UMBRIA","6"
"55028","Porano",42.68703342,12.10199382,"Terni","TR","UMBRIA","2"
"55029","San Gemini",42.61338039,12.54624736,"Terni","TR","UMBRIA","5"
"55030","San Venanzo",42.86885453,12.26620541,"Terni","TR","UMBRIA","3"
"55032","Terni",42.56071258,12.64668751,"Terni","TR","UMBRIA","5"
"55033","Avigliano Umbro",42.65508185,12.42809534,"Terni","TR","UMBRIA","5"
"56001","Acquapendente",42.74404371,11.86505396,"Viterbo","VT","LAZIO","1"
"56018","Castiglione in Teverina",42.64495596,12.20411325,"Viterbo","VT","LAZIO","1"
"56021","Civita Castellana",42.28917672,12.41176641,"Viterbo","VT","LAZIO","5"
"56032","Latera",42.62640578,11.8284298,"Viterbo","VT","LAZIO","1"
"56035","Montalto di Castro",42.35322958,11.6041783,"Viterbo","VT","LAZIO","6"
"56036","Montefiascone",42.5376144,12.03036871,"Viterbo","VT","LAZIO","1"
"56040","Onano",42.69372417,11.81498404,"Viterbo","VT","LAZIO","1"
"56043","Piansano",42.5178869,11.82824744,"Viterbo","VT","LAZIO","2"
"56044","Proceno",42.75720626,11.83043541,"Viterbo","VT","LAZIO","1"
"56052","Tuscania",42.41671675,11.87564309,"Viterbo","VT","LAZIO","2"
"56059","Viterbo",42.41738279,12.10473417,"Viterbo","VT","LAZIO","3"
"57002","Amatrice",42.62938445,13.28838645,"Rieti","RI","LAZIO","1"
"57025","Contigliano",42.41074729,12.76654796,"Rieti","RI","LAZIO","2"
"57035","Magliano Sabina",42.36133088,12.48099427,"Rieti","RI","LAZIO","5"
"57059","Rieti",42.40488444,12.86205941,"Rieti","RI","LAZIO","2"
"58058","Mazzano Romano",42.20466917,12.39943403,"Roma","RM","LAZIO","3"
"58091","Roma",41.89277044,12.48366723,"Roma","RM","LAZIO","11"
"58099","Sant'Oreste",42.23405018,12.51988081,"Roma","RM","LAZIO","4"
"58102","Segni",41.69145242,13.02317379,"Roma","RM","LAZIO","2"
"59004","Castelforte",41.30023026,13.82274862,"Latina","LT","LAZIO","4"
"59017","Pontinia",41.40822926,13.0440276,"Latina","LT","LAZIO","6"
"60006","Anagni",41.74393633,13.15452041,"Frosinone","FR","LAZIO","6"
"6003","Alessandria",44.91297351,8.61540116,"Alessandria","AL","PIEMONTE","12"
"6004","Alfiano Natta",45.04723245,8.20845976,"Alessandria","AL","PIEMONTE","3"
"6006","Alluvioni Cambiò",44.99538211,8.77257309,"Alessandria","AL","PIEMONTE","10"
"6018","Borghetto di Borbera",44.73105311,8.94535017,"Alessandria","AL","PIEMONTE","7"
"6021","Bosco Marengo",44.82209118,8.67599099,"Alessandria","AL","PIEMONTE","12"
"6027","Camino",45.16220888,8.28704469,"Alessandria","AL","PIEMONTE","3"
"6030","Carbonara Scrivia",44.84976758,8.87077531,"Alessandria","AL","PIEMONTE","5"
"6039","Casale Monferrato",45.13502772,8.45260603,"Alessandria","AL","PIEMONTE","9"
"6047","Castellazzo Bormida",44.84547363,8.57711652,"Alessandria","AL","PIEMONTE","11"
"6053","Castelnuovo Scrivia",44.97942413,8.88163236,"Alessandria","AL","PIEMONTE","10"
"6053","Castelnuovo Scrivia",44.97942413,8.88163236,"Alessandria","AL","PIEMONTE","12"
"6061","Conzano",45.02054219,8.45605851,"Alessandria","AL","PIEMONTE","4"
"6064","Cuccaro Monferrato",44.99071371,8.45548032,"Alessandria","AL","PIEMONTE","4"
"6072","Frassinello Monferrato",45.03150897,8.38660956,"Alessandria","AL","PIEMONTE","4"
"6075","Frugarolo",44.8389863,8.67906229,"Alessandria","AL","PIEMONTE","12"
"6077","Gabiano",45.15893956,8.19315039,"Alessandria","AL","PIEMONTE","3"
"6081","Gavi",44.68829965,8.80360629,"Alessandria","AL","PIEMONTE","7"
"6082","Giarole",45.0606548,8.56785699,"Alessandria","AL","PIEMONTE","9"
"6083","Gremiasco",44.79704719,9.10473865,"Alessandria","AL","PIEMONTE","1"
"6086","Guazzora",45.01359818,8.84491063,"Alessandria","AL","PIEMONTE","10"
"6092","Melazzo",44.64399212,8.42690281,"Alessandria","AL","PIEMONTE","8"
"6093","Merana",44.51779681,8.29752453,"Alessandria","AL","PIEMONTE","8"
"6094","Mirabello Monferrato",45.03574687,8.52345012,"Alessandria","AL","PIEMONTE","9"
"6102","Montacuto",44.76675329,9.10687493,"Alessandria","AL","PIEMONTE","1"
"6106","Montechiaro d'Acqui",44.59498476,8.37967335,"Alessandria","AL","PIEMONTE","8"
"61073","Ruviano",41.2106267,14.40983327,"Caserta","CE","CAMPANIA","4"
"6113","Murisengo",45.08344752,8.137466,"Alessandria","AL","PIEMONTE","3"
"6114","Novi Ligure",44.76018447,8.78709895,"Alessandria","AL","PIEMONTE","12"
"6120","Ottiglio",45.05183484,8.33914672,"Alessandria","AL","PIEMONTE","4"
"6123","Ozzano Monferrato",45.10189355,8.37622616,"Alessandria","AL","PIEMONTE","3"
"6130","Piovera",44.95967234,8.7349996,"Alessandria","AL","PIEMONTE","10"
"6131","Pomaro Monferrato",45.06391823,8.59519185,"Alessandria","AL","PIEMONTE","9"
"6133","Pontestura",45.14364169,8.33254095,"Alessandria","AL","PIEMONTE","3"
"6134","Ponti",44.62741706,8.36523345,"Alessandria","AL","PIEMONTE","8"
"6138","Pozzolo Formigaro",44.79386971,8.78154639,"Alessandria","AL","PIEMONTE","12"
"6142","Quattordio",44.89920749,8.40598711,"Alessandria","AL","PIEMONTE","11"
"6149","Rosignano Monferrato",45.07984539,8.39905893,"Alessandria","AL","PIEMONTE","3"
"6151","Sale",44.98474756,8.80897055,"Alessandria","AL","PIEMONTE","10"
"6154","San Salvatore Monferrato",44.99480511,8.56669038,"Alessandria","AL","PIEMONTE","4"
"6159","Serralunga di Crea",45.10074125,8.2818606,"Alessandria","AL","PIEMONTE","3"
"6160","Serravalle Scrivia",44.71947066,8.85899164,"Alessandria","AL","PIEMONTE","7"
"6162","Silvano d'Orba",44.68557224,8.67101282,"Alessandria","AL","PIEMONTE","7"
"6163","Solero",44.91976152,8.50770965,"Alessandria","AL","PIEMONTE","11"
"6165","Spigno Monferrato",44.54303249,8.33530262,"Alessandria","AL","PIEMONTE","8"
"6174","Tortona",44.89474291,8.86015893,"Alessandria","AL","PIEMONTE","12"
"6181","Viguzzolo",44.90492247,8.92008036,"Alessandria","AL","PIEMONTE","12"
"6182","Villadeati",45.07244218,8.16969885,"Alessandria","AL","PIEMONTE","3"
"62003","Apice",41.11857609,14.93107277,"Benevento","BN","CAMPANIA","5"
"62008","Benevento",41.12969986,14.7815172,"Benevento","BN","CAMPANIA","5"
"62012","Calvi",41.07242545,14.86690871,"Benevento","BN","CAMPANIA","5"
"62013","Campolattaro",41.28693249,14.73043517,"Benevento","BN","CAMPANIA","4"
"62016","Castelfranco in Miscano",41.29686774,15.08257087,"Benevento","BN","CAMPANIA","2"
"62020","Castelvetere in Val Fortore",41.4419691,14.94213224,"Benevento","BN","CAMPANIA","2"
"62024","Circello",41.35602914,14.80828522,"Benevento","BN","CAMPANIA","2"
"62044","Morcone",41.34020414,14.66404873,"Benevento","BN","CAMPANIA","1"
"62045","Paduli",41.16859857,14.88730278,"Benevento","BN","CAMPANIA","5"
"62046","Pago Veiano",41.24652793,14.87351296,"Benevento","BN","CAMPANIA","4"
"62050","Pesco Sannita",41.23435632,14.81092001,"Benevento","BN","CAMPANIA","4"
"62052","Pietrelcina",41.19688012,14.84874802,"Benevento","BN","CAMPANIA","5"
"62058","San Giorgio del Sannio",41.06240988,14.85355966,"Benevento","BN","CAMPANIA","5"
"62064","San Marco dei Cavoti",41.30601106,14.8806843,"Benevento","BN","CAMPANIA","2"
"64003","Andretta",40.93254843,15.32147231,"Avellino","AV","CAMPANIA","4"
"64004","Aquilonia",40.98660751,15.47175714,"Avellino","AV","CAMPANIA","4"
"64005","Ariano Irpino",41.15385883,15.09006787,"Avellino","AV","CAMPANIA","1"
"64011","Bisaccia",41.01318144,15.37502023,"Avellino","AV","CAMPANIA","4"
"64013","Cairano",40.89634583,15.3701511,"Avellino","AV","CAMPANIA","4"
"64015","Calitri",40.90045423,15.43866059,"Avellino","AV","CAMPANIA","4"
"64019","Carife",41.02744097,15.20812925,"Avellino","AV","CAMPANIA","10"
"64022","Castel Baronia",41.04719906,15.18836128,"Avellino","AV","CAMPANIA","10"
"64030","Conza della Campania",40.85724766,15.33570326,"Avellino","AV","CAMPANIA","4"
"64033","Fontanarosa",41.02040568,15.02052275,"Avellino","AV","CAMPANIA","9"
"64035","Frigento",41.0119868,15.09768868,"Avellino","AV","CAMPANIA","10"
"64036","Gesualdo",41.00658622,15.07043379,"Avellino","AV","CAMPANIA","9"
"64040","Guardia Lombardi",40.95465584,15.20764925,"Avellino","AV","CAMPANIA","3"
"64050","Mirabella Eclano",41.04137986,14.99217637,"Avellino","AV","CAMPANIA","9"
"64052","Montecalvo Irpino",41.19419528,15.03161925,"Avellino","AV","CAMPANIA","1"
"64104","Sturno",41.02217144,15.11247993,"Avellino","AV","CAMPANIA","10"
"64114","Vallata",41.03692496,15.25135623,"Avellino","AV","CAMPANIA","3"
"64120","Zungoli",41.12766031,15.2025556,"Avellino","AV","CAMPANIA","1"
"65029","Caselle in Pittari",40.17243756,15.54391906,"Salerno","SA","CAMPANIA","5"
"66027","Castel di Ieri",42.11406339,13.74075737,"L'Aquila","AQ","ABRUZZO","6"
"66048","Introdacqua",42.00769338,13.89919227,"L'Aquila","AQ","ABRUZZO","9"
"66075","Pratola Peligna",42.09736189,13.87243478,"L'Aquila","AQ","ABRUZZO","9"
"66078","Rivisondoli",41.87039501,14.06636277,"L'Aquila","AQ","ABRUZZO","13"
"66096","Scurcola Marsicana",42.06445594,13.34240445,"L'Aquila","AQ","ABRUZZO","7"
"66105","Villa Sant'Angelo",42.27002885,13.53754168,"L'Aquila","AQ","ABRUZZO","2"
"67004","Atri",42.57971067,13.97541817,"Teramo","TE","ABRUZZO","6"
"67006","Bellante",42.74460127,13.80535903,"Teramo","TE","ABRUZZO","5"
"67011","Castellalto",42.67539533,13.81746384,"Teramo","TE","ABRUZZO","6"
"67014","Castilenti",42.53336403,13.9177664,"Teramo","TE","ABRUZZO","4"
"67019","Colonnella",42.87176703,13.86756702,"Teramo","TE","ABRUZZO","5"
"67021","Corropoli",42.82761332,13.83486055,"Teramo","TE","ABRUZZO","5"
"67025","Giulianova",42.7526577,13.95671861,"Teramo","TE","ABRUZZO","5"
"67027","Montefino",42.54481325,13.8844286,"Teramo","TE","ABRUZZO","4"
"67032","Notaresco",42.6590295,13.89404399,"Teramo","TE","ABRUZZO","6"
"67037","Roseto degli Abruzzi",42.6801656,14.01155502,"Teramo","TE","ABRUZZO","6"
"67039","Sant'Omero",42.78665683,13.80289563,"Teramo","TE","ABRUZZO","5"
"67041","Teramo",42.6589177,13.70439981,"Teramo","TE","ABRUZZO","3"
"68022","Manoppello",42.26106208,14.06045336,"Pescara","PE","ABRUZZO","5"
"68027","Penne",42.4580394,13.92738518,"Pescara","PE","ABRUZZO","4"
"68031","Picciano",42.47480789,13.99134633,"Pescara","PE","ABRUZZO","4"
"68041","Spoltore",42.45568799,14.14148276,"Pescara","PE","ABRUZZO","6"
"69005","Atessa",42.06734847,14.44308594,"Chieti","CH","ABRUZZO","8"
"69017","Casoli",42.1150425,14.29043913,"Chieti","CH","ABRUZZO","4"
"69023","Civitaluparella",41.9448394,14.30305092,"Chieti","CH","ABRUZZO","2"
"69054","Montenerodomo",41.97660203,14.25180284,"Chieti","CH","ABRUZZO","2"
"69059","Paglieta",42.16270714,14.49851779,"Chieti","CH","ABRUZZO","8"
"70003","Bojano",41.48282294,14.47143659,"Campobasso","CB","MOLISE","3"
"70004","Bonefro",41.70269449,14.93419633,"Campobasso","CB","MOLISE","5"
"70009","Campolieto",41.63517218,14.76695123,"Campobasso","CB","MOLISE","2"
"70011","Casacalenda",41.73955595,14.84713322,"Campobasso","CB","MOLISE","4"
"70017","Cercemaggiore",41.460307,14.72209513,"Campobasso","CB","MOLISE","2"
"70023","Ferrazzano",41.53066428,14.67094603,"Campobasso","CB","MOLISE","2"
"70025","Gambatesa",41.50926746,14.91403196,"Campobasso","CB","MOLISE","6"
"70030","Jelsi",41.51841393,14.79609556,"Campobasso","CB","MOLISE","6"
"70032","Limosano",41.67663217,14.62117165,"Campobasso","CB","MOLISE","1"
"70037","Matrice",41.61240375,14.71100166,"Campobasso","CB","MOLISE","2"
"70046","Montenero di Bisaccia",41.95724749,14.78121409,"Campobasso","CB","MOLISE","7"
"70057","Riccia",41.48654569,14.83638205,"Campobasso","CB","MOLISE","2"
"70058","Ripabottoni",41.68854667,14.80653221,"Campobasso","CB","MOLISE","2"
"70062","Salcito",41.74735883,14.51082012,"Campobasso","CB","MOLISE","1"
"70076","Spinete",41.54337771,14.48755127,"Campobasso","CB","MOLISE","3"
"70079","Torella del Sannio",41.6404357,14.52155973,"Campobasso","CB","MOLISE","1"
"70080","Toro",41.57393556,14.76595207,"Campobasso","CB","MOLISE","6"
"70081","Trivento",41.78409543,14.55096703,"Campobasso","CB","MOLISE","1"
"70082","Tufara",41.48184744,14.94578377,"Campobasso","CB","MOLISE","6"
"71005","Ascoli Satriano",41.20814602,15.56026594,"Foggia","FG","PUGLIA","4"
"71020","Cerignola",41.26522173,15.90368339,"Foggia","FG","PUGLIA","10"
"72021","Gioia del Colle",40.80069471,16.92406768,"Bari","BA","PUGLIA","5"
"72036","Putignano",40.84963964,17.1191007,"Bari","BA","PUGLIA","6"
"74020","Villa Castelli",40.57717011,17.47588931,"Brindisi","BR","PUGLIA","1"
"75029","Galatina",40.1739561,18.17227503,"Lecce","LE","PUGLIA","4"
"76003","Albano di Lucania",40.58299757,16.03615712,"Potenza","PZ","BASILICATA","4"
"76006","Atella",40.87742205,15.65274277,"Potenza","PZ","BASILICATA","10"
"76007","Avigliano",40.72977773,15.71780199,"Potenza","PZ","BASILICATA","1"
"76008","Balvano",40.65124604,15.5120599,"Potenza","PZ","BASILICATA","3"
"76009","Banzi",40.86033582,16.01328897,"Potenza","PZ","BASILICATA","12"
"76012","Bella",40.75859333,15.53778824,"Potenza","PZ","BASILICATA","1"
"76029","Corleto Perticara",40.38381925,16.04249691,"Potenza","PZ","BASILICATA","6"
"76032","Filiano",40.80923118,15.70685304,"Potenza","PZ","BASILICATA","1"
"76035","Gallicchio",40.2889207,16.1385519,"Potenza","PZ","BASILICATA","6"
"76043","Lavello",41.04995683,15.80105357,"Potenza","PZ","BASILICATA","11"
"76058","Pescopagano",40.83588628,15.39691847,"Potenza","PZ","BASILICATA","1"
"76059","Picerno",40.63709859,15.63601218,"Potenza","PZ","BASILICATA","3"
"76061","Pietrapertosa",40.51565096,16.06348863,"Potenza","PZ","BASILICATA","4"
"76063","Potenza",40.63947047,15.8051495,"Potenza","PZ","BASILICATA","2"
"76067","Ripacandida",40.91285178,15.72739325,"Potenza","PZ","BASILICATA","10"
"76076","San Fele",40.8192069,15.53923256,"Potenza","PZ","BASILICATA","1"
"76095","Venosa",40.96454919,15.82328489,"Potenza","PZ","BASILICATA","11"
"77011","Grassano",40.63354407,16.2842797,"Matera","MT","BASILICATA","3"
"77013","Irsina",40.74568908,16.24315213,"Matera","MT","BASILICATA","2"
"77028","Tricarico",40.61895517,16.14057812,"Matera","MT","BASILICATA","3"
"78003","Acri",39.48835683,16.38155051,"Cosenza","CS","CALABRIA","3"
"80004","Antonimina",38.27297826,16.14824322,"Reggio Calabria","RC","CALABRIA","3"
"82001","Alia",37.77857858,13.71312654,"Palermo","PA","SICILIA","2"
"82034","Corleone",37.81204186,13.3015804,"Palermo","PA","SICILIA","1"
"86002","Aidone",37.4160022,14.44789122,"Enna","EN","SICILIA","4"
"9048","Piana Crixia",44.48527201,8.30751198,"Savona","SV","LIGURIA","1"
"93042","Sequals",46.16621461,12.82658083,"Pordenone","PN","FRIULI","2"
"97016","Casatenovo",45.69906559,9.31559457,"Lecco","LC","LOMBARDIA","12"
"97061","Osnago",45.67573447,9.3880166,"Lecco","LC","LOMBARDIA","12"
"97062","Paderno d'Adda",45.68024814,9.44739335,"Lecco","LC","LOMBARDIA","12"
"97087","Verderio Inferiore",45.6616,9.4341,"Lecco","LC","LOMBARDIA","12"
"98002","Bertonico",45.23388802,9.66860158,"Lodi","LO","LOMBARDIA","10"
"98004","Borghetto Lodigiano",45.21274117,9.49802352,"Lodi","LO","LOMBARDIA","10"
"98011","Caselle Landi",45.10376862,9.79199005,"Lodi","LO","LOMBARDIA","11"
"98013","Castelnuovo Bocca d'Adda",45.11236905,9.86941312,"Lodi","LO","LOMBARDIA","11"
"98060","Villanova del Sillaro",45.23730986,9.48089049,"Lodi","LO","LOMBARDIA","10"
"99003","Coriano",43.9644061,12.60253363,"Rimini","RN","EMILIA ROMAGNA","4"
"99014","Rimini",44.06090086,12.56562951,"Rimini","RN","EMILIA ROMAGNA","6"
"99018","Santarcangelo di Romagna",44.06289157,12.44702296,"Rimini","RN","EMILIA ROMAGNA","6"
"99020","Verucchio",43.98370542,12.42138257,"Rimini","RN","EMILIA ROMAGNA","3"
